{
    "nome_fantasia": "Pizzaria Colonial",
    "whatsapp": "5511939991234",
    "telefone": "(11) 2015-4049",
    "endereco_principal": "Rua Virgínia Ferni, 1758 - Itaquera, SP",
    "cor_primaria": "#a98e3d",
    "instagram": "",
    "facebook": "",
    "inventory_enabled": true,
    "allow_negative_stock": true,
    "ai_enabled": true,
    "self_service_enabled": true,
    "self_service_days": "Segunda a Sexta: 11h às 15h",
    "rodizio_carne_enabled": true,
    "rodizio_carne_days": "Sexta a Domingo, 18h às 23h",
    "rodizio_pizza_enabled": true,
    "rodizio_pizza_days": "Todos os dias, 18h às 23h",
    "logo_url": "",
    "tempo_espera": "40-50 min",
    "units": [
        {
            "address": "Rua Virgínia Ferni, 1758 - Itaquera, São Paulo - SP",
            "lat": -23.543419,
            "lon": -46.452766,
            "name": "Unidade 1 - Itaquera",
            "phone": "5511914569028"
        },
        {
            "address": "Av. Luís Pires de Minas, 1387 - Cidade IV Centenário, São Paulo - SP",
            "lat": -23.5857,
            "lon": -46.4958,
            "name": "Unidade 2 - Cidade IV Centenário",
            "phone": "5511914569028"
        },
        {
            "address": "Av. Águia de Haia, 1210 - Parque Paineiras, São Paulo - SP",
            "lat": -23.5385,
            "lon": -46.48,
            "name": "Unidade 3 - Parque Paineiras",
            "phone": "5511914569028"
        },
        {
            "address": "Av. Torres Tibagy, 916 - Guarulhos - SP",
            "lat": -23.456,
            "lon": -46.54,
            "name": "Unidade 4 - Guarulhos",
            "phone": "5511914569028"
        }
    ]
}